{"type": "FeatureCollection",
"name": "Breweries",
"crs": { "type": "name", "properties": { "name": "urn:ogc:def:crs:OGC:1.3:CRS84" } },
"features": [
{ "type": "Feature", "properties": { "NAME": "Deviant Wolfe Brewing", "LOCATION": "Sanford, FL", "BEER": "Sourmanjaro" }, "geometry": { "type": "Point", "coordinates": [ -81.268692724999937, 28.811559438000074 ] } },
{ "type": "Feature", "properties": { "NAME": "Two Henry's Brewing", "LOCATION": "Plant City, FL", "BEER": "Roasted Jalapeno Blueberry Porter" }, "geometry": { "type": "Point", "coordinates": [ -82.187704980999968, 28.047468047000052 ] } },
{ "type": "Feature", "properties": { "NAME": "Yazoo Brewing", "LOCATION": "Nashville, TN", "BEER": "Foudre Noire, Calfkiller" }, "geometry": { "type": "Point", "coordinates": [ -86.78210495899998, 36.151126888000078 ] } },
{ "type": "Feature", "properties": { "NAME": "TrimTab Brewing", "LOCATION": "Birmingham, AL", "BEER": "Dreams of Oblivion" }, "geometry": { "type": "Point", "coordinates": [ -86.790886379999961, 33.512872752000078 ] } },
{ "type": "Feature", "properties": { "NAME": "Lost Coast Brewing", "LOCATION": "Eureka, CA", "BEER": "Tangerine Wheat" }, "geometry": { "type": "Point", "coordinates": [ -124.189120893999984, 40.767478725000046 ] } },
{ "type": "Feature", "properties": { "NAME": "Rusty Rail Brewing", "LOCATION": "Mifflinburg, PA", "BEER": "Fool's Gold Imperial Peanut Butter Hefeweizen" }, "geometry": { "type": "Point", "coordinates": [ -77.053186928999935, 40.916239885000039 ] } },
{ "type": "Feature", "properties": { "NAME": "Prairie Artisan Ales", "LOCATION": "Oklahoma City, OK", "BEER": "Vape Tricks" }, "geometry": { "type": "Point", "coordinates": [ -97.511759186999939, 35.47629566300003 ] } },
{ "type": "Feature", "properties": { "NAME": "Hourglass Brewing", "LOCATION": "Longwood, FL", "BEER": "Gingerbread Sour" }, "geometry": { "type": "Point", "coordinates": [ -81.346433476999948, 28.692431627000076 ] } }
]}
